{
"type": "FeatureCollection",
"name": "landmarks_clean",
"crs": { "type": "name", "properties": { "name": "urn:ogc:def:crs:OGC:1.3:CRS84" } },
"features": [
{ "type": "Feature", "properties": { "feature_name": "Koorie Heritage Trust Inc", "theme": "Place Of Assembly", "sub_theme": "Art Gallery/Museum" }, "geometry": { "type": "Point", "coordinates": [ 144.954027907735991, -37.8133854259085 ] } },
{ "type": "Feature", "properties": { "feature_name": "Macarthur Square", "theme": "Leisure/Recreation", "sub_theme": "Informal Outdoor Facility (Park/Garden/Reserve)" }, "geometry": { "type": "Point", "coordinates": [ 144.971514146103999, -37.798331867673703 ] } },
{ "type": "Feature", "properties": { "feature_name": "North Melbourne Railway Station", "theme": "Transport", "sub_theme": "Railway Station" }, "geometry": { "type": "Point", "coordinates": [ 144.942429848025, -37.807382362505798 ] } },
{ "type": "Feature", "properties": { "feature_name": "Cooks' Cottage", "theme": "Place Of Assembly", "sub_theme": "Art Gallery/Museum" }, "geometry": { "type": "Point", "coordinates": [ 144.979471339826006, -37.814460489983702 ] } },
{ "type": "Feature", "properties": { "feature_name": "Royal Exhibition Building", "theme": "Place Of Assembly", "sub_theme": "Art Gallery/Museum" }, "geometry": { "type": "Point", "coordinates": [ 144.971521914952007, -37.804602624319998 ] } },
{ "type": "Feature", "properties": { "feature_name": "Melbourne Childrens Court", "theme": "Community Use", "sub_theme": "Public Buildings" }, "geometry": { "type": "Point", "coordinates": [ 144.958298873269001, -37.812507764659799 ] } },
{ "type": "Feature", "properties": { "feature_name": "Eureka Skydeck 88", "theme": "Leisure/Recreation", "sub_theme": "Observation Tower/Wheel" }, "geometry": { "type": "Point", "coordinates": [ 144.964622218598009, -37.821618758331397 ] } },
{ "type": "Feature", "properties": { "feature_name": "County Court Melbourne", "theme": "Community Use", "sub_theme": "Public Buildings" }, "geometry": { "type": "Point", "coordinates": [ 144.957734246386991, -37.813201161996197 ] } },
{ "type": "Feature", "properties": { "feature_name": "Epworth Freemasons Hospital", "theme": "Health Services", "sub_theme": "Private Hospital" }, "geometry": { "type": "Point", "coordinates": [ 144.983700076589997, -37.810971065405099 ] } },
{ "type": "Feature", "properties": { "feature_name": "Old Melbourne Gaol Crime & Justice Experience", "theme": "Place Of Assembly", "sub_theme": "Art Gallery/Museum" }, "geometry": { "type": "Point", "coordinates": [ 144.965463853978008, -37.8077644149636 ] } },
{ "type": "Feature", "properties": { "feature_name": "Melbourne Exhibition Centre", "theme": "Place Of Assembly", "sub_theme": "Function/Conference/Exhibition Centre" }, "geometry": { "type": "Point", "coordinates": [ 144.954352432489998, -37.825245512329701 ] } },
{ "type": "Feature", "properties": { "feature_name": "MTC Theatre", "theme": "Place Of Assembly", "sub_theme": "Theatre Live" }, "geometry": { "type": "Point", "coordinates": [ 144.968174400273995, -37.824266183290199 ] } },
{ "type": "Feature", "properties": { "feature_name": "Shrine of Rembrance Reserve", "theme": "Leisure/Recreation", "sub_theme": "Informal Outdoor Facility (Park/Garden/Reserve)" }, "geometry": { "type": "Point", "coordinates": [ 144.973628364464986, -37.832073399287601 ] } },
{ "type": "Feature", "properties": { "feature_name": "Icehouse", "theme": "Leisure/Recreation", "sub_theme": "Indoor Recreation Facility" }, "geometry": { "type": "Point", "coordinates": [ 144.93568401887299, -37.812188119405299 ] } },
{ "type": "Feature", "properties": { "feature_name": "Parliament Railway Station", "theme": "Transport", "sub_theme": "Railway Station" }, "geometry": { "type": "Point", "coordinates": [ 144.973433796529008, -37.812762111355198 ] } },
{ "type": "Feature", "properties": { "feature_name": "Flemington Racecourse Railway Station", "theme": "Transport", "sub_theme": "Railway Station" }, "geometry": { "type": "Point", "coordinates": [ 144.908190706069007, -37.786910582251899 ] } },
{ "type": "Feature", "properties": { "feature_name": "Carlton Baths", "theme": "Leisure/Recreation", "sub_theme": "Indoor Recreation Facility" }, "geometry": { "type": "Point", "coordinates": [ 144.97169654862401, -37.793437704260903 ] } },
{ "type": "Feature", "properties": { "feature_name": "Dallas Brooks Centre", "theme": "Place Of Assembly", "sub_theme": "Function/Conference/Exhibition Centre" }, "geometry": { "type": "Point", "coordinates": [ 144.981383411591992, -37.809737413823399 ] } },
{ "type": "Feature", "properties": { "feature_name": "Flemington Racecourse", "theme": "Leisure/Recreation", "sub_theme": "Major Sports & Recreation Facility" }, "geometry": { "type": "Point", "coordinates": [ 144.912142987371993, -37.790808264662402 ] } },
{ "type": "Feature", "properties": { "feature_name": "Treasury Gardens", "theme": "Leisure/Recreation", "sub_theme": "Informal Outdoor Facility (Park/Garden/Reserve)" }, "geometry": { "type": "Point", "coordinates": [ 144.975952335784996, -37.8143993575938 ] } },
{ "type": "Feature", "properties": { "feature_name": "Melbourne Magistrates Court", "theme": "Community Use", "sub_theme": "Government Building" }, "geometry": { "type": "Point", "coordinates": [ 144.95684619389101, -37.813614767160601 ] } },
{ "type": "Feature", "properties": { "feature_name": "Melbourne Cricket Ground (MCG)", "theme": "Leisure/Recreation", "sub_theme": "Major Sports & Recreation Facility" }, "geometry": { "type": "Point", "coordinates": [ 144.983402879078, -37.8194921618419 ] } },
{ "type": "Feature", "properties": { "feature_name": "Queen Victoria Gardens", "theme": "Leisure/Recreation", "sub_theme": "Informal Outdoor Facility (Park/Garden/Reserve)" }, "geometry": { "type": "Point", "coordinates": [ 144.971049530478012, -37.821638124489098 ] } },
{ "type": "Feature", "properties": { "feature_name": "New Quay", "theme": "Leisure/Recreation", "sub_theme": "Informal Outdoor Facility (Park/Garden/Reserve)" }, "geometry": { "type": "Point", "coordinates": [ 144.941617889031988, -37.815217878907703 ] } },
{ "type": "Feature", "properties": { "feature_name": "New Quay Marina", "theme": "Transport", "sub_theme": "Marina" }, "geometry": { "type": "Point", "coordinates": [ 144.942283726231011, -37.815292545495403 ] } },
{ "type": "Feature", "properties": { "feature_name": "Rod Laver Arena", "theme": "Leisure/Recreation", "sub_theme": "Major Sports & Recreation Facility" }, "geometry": { "type": "Point", "coordinates": [ 144.978487173786988, -37.822045611980698 ] } },
{ "type": "Feature", "properties": { "feature_name": "Melbourne Park", "theme": "Leisure/Recreation", "sub_theme": "Major Sports & Recreation Facility" }, "geometry": { "type": "Point", "coordinates": [ 144.978735802793011, -37.820908597002102 ] } },
{ "type": "Feature", "properties": { "feature_name": "Hisense Arena", "theme": "Leisure/Recreation", "sub_theme": "Major Sports & Recreation Facility" }, "geometry": { "type": "Point", "coordinates": [ 144.981834802534991, -37.823110002667001 ] } },
{ "type": "Feature", "properties": { "feature_name": "Melbourne Museum", "theme": "Place Of Assembly", "sub_theme": "Art Gallery/Museum" }, "geometry": { "type": "Point", "coordinates": [ 144.971690718887004, -37.803551812929904 ] } },
{ "type": "Feature", "properties": { "feature_name": "Elisabeth Murdoch Hall", "theme": "Community Use", "sub_theme": "Public Buildings" }, "geometry": { "type": "Point", "coordinates": [ 144.967450979234002, -37.823973370428199 ] } },
{ "type": "Feature", "properties": { "feature_name": "Melbourne Recital Centre", "theme": "Community Use", "sub_theme": "Public Buildings" }, "geometry": { "type": "Point", "coordinates": [ 144.96768272966699, -37.823832788580503 ] } },
{ "type": "Feature", "properties": { "feature_name": "Hamer Hall", "theme": "Place Of Assembly", "sub_theme": "Theatre Live" }, "geometry": { "type": "Point", "coordinates": [ 144.967992144257011, -37.819990100901499 ] } },
{ "type": "Feature", "properties": { "feature_name": "Royal Park Railway Station", "theme": "Transport", "sub_theme": "Railway Station" }, "geometry": { "type": "Point", "coordinates": [ 144.951667833920993, -37.781268428282502 ] } },
{ "type": "Feature", "properties": { "feature_name": "Flagstaff Railway Station", "theme": "Transport", "sub_theme": "Railway Station" }, "geometry": { "type": "Point", "coordinates": [ 144.956118680499998, -37.811638440397402 ] } },
{ "type": "Feature", "properties": { "feature_name": "Athanaeum Theatre", "theme": "Place Of Assembly", "sub_theme": "Theatre Live" }, "geometry": { "type": "Point", "coordinates": [ 144.967322542120002, -37.814954347830998 ] } },
{ "type": "Feature", "properties": { "feature_name": "Her Majesty's Theatre", "theme": "Place Of Assembly", "sub_theme": "Theatre Live" }, "geometry": { "type": "Point", "coordinates": [ 144.969520183128992, -37.810997561284204 ] } },
{ "type": "Feature", "properties": { "feature_name": "Flinders Street Railway Station", "theme": "Transport", "sub_theme": "Railway Station" }, "geometry": { "type": "Point", "coordinates": [ 144.967064817875013, -37.817906300754501 ] } },
{ "type": "Feature", "properties": { "feature_name": "Sandridge Rail Bridge", "theme": "Leisure/Recreation", "sub_theme": "Informal Outdoor Facility (Park/Garden/Reserve)" }, "geometry": { "type": "Point", "coordinates": [ 144.962981137240007, -37.8201763042794 ] } },
{ "type": "Feature", "properties": { "feature_name": "The Museum Of Australian Chinese History", "theme": "Place Of Assembly", "sub_theme": "Art Gallery/Museum" }, "geometry": { "type": "Point", "coordinates": [ 144.969233854139986, -37.8107686127655 ] } },
{ "type": "Feature", "properties": { "feature_name": "Royal Park Golf Course", "theme": "Leisure/Recreation", "sub_theme": "Private Sports Club/Facility" }, "geometry": { "type": "Point", "coordinates": [ 144.956309119368001, -37.781917130855803 ] } },
{ "type": "Feature", "properties": { "feature_name": "Sidney Myer Music Bowl", "theme": "Community Use", "sub_theme": "Public Buildings" }, "geometry": { "type": "Point", "coordinates": [ 144.974686151365006, -37.823347160873297 ] } },
{ "type": "Feature", "properties": { "feature_name": "Melbourne Star Observation Wheel", "theme": "Leisure/Recreation", "sub_theme": "Observation Tower/Wheel" }, "geometry": { "type": "Point", "coordinates": [ 144.937588920436013, -37.811616366672602 ] } },
{ "type": "Feature", "properties": { "feature_name": "Birrarung Marr", "theme": "Leisure/Recreation", "sub_theme": "Informal Outdoor Facility (Park/Garden/Reserve)" }, "geometry": { "type": "Point", "coordinates": [ 144.973146670140011, -37.818061084029999 ] } },
{ "type": "Feature", "properties": { "feature_name": "Artplay", "theme": "Leisure/Recreation", "sub_theme": "Indoor Recreation Facility" }, "geometry": { "type": "Point", "coordinates": [ 144.971542586509003, -37.818419880004399 ] } },
{ "type": "Feature", "properties": { "feature_name": "Parliament Railway Station", "theme": "Transport", "sub_theme": "Railway Station" }, "geometry": { "type": "Point", "coordinates": [ 144.972330132127013, -37.8095762219384 ] } },
{ "type": "Feature", "properties": { "feature_name": "Immigration Museum", "theme": "Place Of Assembly", "sub_theme": "Art Gallery/Museum" }, "geometry": { "type": "Point", "coordinates": [ 144.960426777128987, -37.8191798798062 ] } },
{ "type": "Feature", "properties": { "feature_name": "Fire Services Museum Victoria", "theme": "Place Of Assembly", "sub_theme": "Art Gallery/Museum" }, "geometry": { "type": "Point", "coordinates": [ 144.975373745365999, -37.808576128161199 ] } },
{ "type": "Feature", "properties": { "feature_name": "North Melbourne Recreation Centre (Aquatic)", "theme": "Leisure/Recreation", "sub_theme": "Major Sports & Recreation Facility" }, "geometry": { "type": "Point", "coordinates": [ 144.943290801869011, -37.799947004965503 ] } },
{ "type": "Feature", "properties": { "feature_name": "Eureka Tower", "theme": "Mixed Use", "sub_theme": "Retail/Residential" }, "geometry": { "type": "Point", "coordinates": [ 144.964456721965007, -37.821515753971703 ] } },
{ "type": "Feature", "properties": { "feature_name": "State Netball Hockey Centre", "theme": "Leisure/Recreation", "sub_theme": "Major Sports & Recreation Facility" }, "geometry": { "type": "Point", "coordinates": [ 144.947580972026998, -37.7857860016289 ] } },
{ "type": "Feature", "properties": { "feature_name": "University Square", "theme": "Leisure/Recreation", "sub_theme": "Informal Outdoor Facility (Park/Garden/Reserve)" }, "geometry": { "type": "Point", "coordinates": [ 144.960398319301987, -37.800410711208997 ] } },
{ "type": "Feature", "properties": { "feature_name": "Southern Cross Railway Station", "theme": "Transport", "sub_theme": "Railway Station" }, "geometry": { "type": "Point", "coordinates": [ 144.952944748844999, -37.8181633057171 ] } },
{ "type": "Feature", "properties": { "feature_name": "Princess Theatre", "theme": "Place Of Assembly", "sub_theme": "Theatre Live" }, "geometry": { "type": "Point", "coordinates": [ 144.972326596199991, -37.810725709130203 ] } },
{ "type": "Feature", "properties": { "feature_name": "Melbourne Zoo", "theme": "Leisure/Recreation", "sub_theme": "Outdoor Recreation Facility (Zoo, Golf Course)" }, "geometry": { "type": "Point", "coordinates": [ 144.951371205937988, -37.784444925371197 ] } },
{ "type": "Feature", "properties": { "feature_name": "Malthouse Theatre", "theme": "Place Of Assembly", "sub_theme": "Theatre Live" }, "geometry": { "type": "Point", "coordinates": [ 144.966936821789005, -37.827176800112603 ] } },
{ "type": "Feature", "properties": { "feature_name": "Thoroughbred Racing Gallery", "theme": "Place Of Assembly", "sub_theme": "Art Gallery/Museum" }, "geometry": { "type": "Point", "coordinates": [ 144.983970095399997, -37.818866273091103 ] } },
{ "type": "Feature", "properties": { "feature_name": "Docklands Park", "theme": "Leisure/Recreation", "sub_theme": "Informal Outdoor Facility (Park/Garden/Reserve)" }, "geometry": { "type": "Point", "coordinates": [ 144.946781702342008, -37.8209956785618 ] } },
{ "type": "Feature", "properties": { "feature_name": "Waterfront City", "theme": "Mixed Use", "sub_theme": "Retail/Office" }, "geometry": { "type": "Point", "coordinates": [ 144.939136876334004, -37.815056661802998 ] } },
{ "type": "Feature", "properties": { "feature_name": "Point Park", "theme": "Leisure/Recreation", "sub_theme": "Informal Outdoor Facility (Park/Garden/Reserve)" }, "geometry": { "type": "Point", "coordinates": [ 144.942102276730992, -37.823352270064603 ] } },
{ "type": "Feature", "properties": { "feature_name": "Melbourne Theatre Company", "theme": "Community Use", "sub_theme": "Public Buildings" }, "geometry": { "type": "Point", "coordinates": [ 144.968297429893994, -37.823930384816002 ] } },
{ "type": "Feature", "properties": { "feature_name": "Alexandra Gardens", "theme": "Leisure/Recreation", "sub_theme": "Informal Outdoor Facility (Park/Garden/Reserve)" }, "geometry": { "type": "Point", "coordinates": [ 144.971796067365005, -37.820605140425101 ] } },
{ "type": "Feature", "properties": { "feature_name": "Jolimont-MCG Railway Station (East Melbourne) - Train stop", "theme": "Transport", "sub_theme": "Railway Station" }, "geometry": { "type": "Point", "coordinates": [ 144.983641003376988, -37.816565181166801 ] } },
{ "type": "Feature", "properties": { "feature_name": "Shrine of Remembrance", "theme": "Community Use", "sub_theme": "Public Buildings" }, "geometry": { "type": "Point", "coordinates": [ 144.973441913622992, -37.830208002038702 ] } },
{ "type": "Feature", "properties": { "feature_name": "Newmarket Railway Station", "theme": "Transport", "sub_theme": "Railway Station" }, "geometry": { "type": "Point", "coordinates": [ 144.92905995811401, -37.787272624196497 ] } },
{ "type": "Feature", "properties": { "feature_name": "Carlton Courthouse Theatre", "theme": "Place Of Assembly", "sub_theme": "Theatre Live" }, "geometry": { "type": "Point", "coordinates": [ 144.968750113565989, -37.797658994321701 ] } },
{ "type": "Feature", "properties": { "feature_name": "Melbourne Showgrounds", "theme": "Leisure/Recreation", "sub_theme": "Outdoor Recreation Facility (Zoo, Golf Course)" }, "geometry": { "type": "Point", "coordinates": [ 144.910822117305997, -37.782309785088302 ] } },
{ "type": "Feature", "properties": { "feature_name": "Melbourne Wholesale Fruit, Vegetable & Flower Market", "theme": "Mixed Use", "sub_theme": "Retail/Office/Carpark" }, "geometry": { "type": "Point", "coordinates": [ 144.923287444258989, -37.80687252157 ] } },
{ "type": "Feature", "properties": { "feature_name": "Melbourne Central", "theme": "Mixed Use", "sub_theme": "Retail/Office/Carpark" }, "geometry": { "type": "Point", "coordinates": [ 144.962749729496011, -37.810537179714203 ] } },
{ "type": "Feature", "properties": { "feature_name": "Piazza Italia", "theme": "Leisure/Recreation", "sub_theme": "Informal Outdoor Facility (Park/Garden/Reserve)" }, "geometry": { "type": "Point", "coordinates": [ 144.965863092946989, -37.802516419252299 ] } },
{ "type": "Feature", "properties": { "feature_name": "Murchinson Square", "theme": "Leisure/Recreation", "sub_theme": "Informal Outdoor Facility (Park/Garden/Reserve)" }, "geometry": { "type": "Point", "coordinates": [ 144.973059252203001, -37.800273502537102 ] } },
{ "type": "Feature", "properties": { "feature_name": "Myer", "theme": "Retail", "sub_theme": "Department Store" }, "geometry": { "type": "Point", "coordinates": [ 144.963855087868012, -37.813591198528101 ] } },
{ "type": "Feature", "properties": { "feature_name": "Parliament Railway Station", "theme": "Transport", "sub_theme": "Railway Station" }, "geometry": { "type": "Point", "coordinates": [ 144.973017263156009, -37.811606178717099 ] } },
{ "type": "Feature", "properties": { "feature_name": "North Melbourne Recreation Reserve", "theme": "Leisure/Recreation", "sub_theme": "Informal Outdoor Facility (Park/Garden/Reserve)" }, "geometry": { "type": "Point", "coordinates": [ 144.941452061462996, -37.7988345257153 ] } },
{ "type": "Feature", "properties": { "feature_name": "Princes Park", "theme": "Leisure/Recreation", "sub_theme": "Informal Outdoor Facility (Park/Garden/Reserve)" }, "geometry": { "type": "Point", "coordinates": [ 144.961115214366998, -37.787016172715603 ] } },
{ "type": "Feature", "properties": { "feature_name": "Melbourne Central Railway Station", "theme": "Transport", "sub_theme": "Railway Station" }, "geometry": { "type": "Point", "coordinates": [ 144.963789344893001, -37.810016703085502 ] } },
{ "type": "Feature", "properties": { "feature_name": "Argyle Square", "theme": "Leisure/Recreation", "sub_theme": "Informal Outdoor Facility (Park/Garden/Reserve)" }, "geometry": { "type": "Point", "coordinates": [ 144.96576129508901, -37.8031480577285 ] } },
{ "type": "Feature", "properties": { "feature_name": "Westpac Centre", "theme": "Leisure/Recreation", "sub_theme": "Major Sports & Recreation Facility" }, "geometry": { "type": "Point", "coordinates": [ 144.979720306308991, -37.824245685859303 ] } },
{ "type": "Feature", "properties": { "feature_name": "Mercy Private Hospital", "theme": "Health Services", "sub_theme": "Medical Services" }, "geometry": { "type": "Point", "coordinates": [ 144.984435746586996, -37.811896809802001 ] } },
{ "type": "Feature", "properties": { "feature_name": "Carlton Gardens North", "theme": "Leisure/Recreation", "sub_theme": "Informal Outdoor Facility (Park/Garden/Reserve)" }, "geometry": { "type": "Point", "coordinates": [ 144.971997551188991, -37.8017690847403 ] } },
{ "type": "Feature", "properties": { "feature_name": "Treasury Reserve", "theme": "Mixed Use", "sub_theme": "Retail/Office" }, "geometry": { "type": "Point", "coordinates": [ 144.975236759799003, -37.812917879308202 ] } },
{ "type": "Feature", "properties": { "feature_name": "Wonderland Park", "theme": "Leisure/Recreation", "sub_theme": "Outdoor Recreation Facility (Zoo, Golf Course)" }, "geometry": { "type": "Point", "coordinates": [ 144.936833674974991, -37.811694535198903 ] } },
{ "type": "Feature", "properties": { "feature_name": "Fawkner Park", "theme": "Leisure/Recreation", "sub_theme": "Informal Outdoor Facility (Park/Garden/Reserve)" }, "geometry": { "type": "Point", "coordinates": [ 144.981625667877012, -37.841399670818603 ] } },
{ "type": "Feature", "properties": { "feature_name": "Enterprize Park", "theme": "Leisure/Recreation", "sub_theme": "Informal Outdoor Facility (Park/Garden/Reserve)" }, "geometry": { "type": "Point", "coordinates": [ 144.959276859601999, -37.820210269629001 ] } },
{ "type": "Feature", "properties": { "feature_name": "Royal Melbourne Hospital", "theme": "Health Services", "sub_theme": "Public Hospital" }, "geometry": { "type": "Point", "coordinates": [ 144.956389746765012, -37.799307166409598 ] } },
{ "type": "Feature", "properties": { "feature_name": "Commonwealth Law Courts", "theme": "Community Use", "sub_theme": "Public Buildings" }, "geometry": { "type": "Point", "coordinates": [ 144.955823833257, -37.812396167759601 ] } },
{ "type": "Feature", "properties": { "feature_name": "City Baths", "theme": "Leisure/Recreation", "sub_theme": "Major Sports & Recreation Facility" }, "geometry": { "type": "Point", "coordinates": [ 144.963189789721014, -37.807158535056097 ] } },
{ "type": "Feature", "properties": { "feature_name": "Flemington Bridge Railway Station", "theme": "Transport", "sub_theme": "Railway Station" }, "geometry": { "type": "Point", "coordinates": [ 144.939277838304008, -37.788164588962097 ] } },
{ "type": "Feature", "properties": { "feature_name": "Council House 2 (CH2)", "theme": "Mixed Use", "sub_theme": "Retail/Office/Carpark" }, "geometry": { "type": "Point", "coordinates": [ 144.966638432726995, -37.814259143201099 ] } },
{ "type": "Feature", "properties": { "feature_name": "Carlton Gardens South", "theme": "Leisure/Recreation", "sub_theme": "Informal Outdoor Facility (Park/Garden/Reserve)" }, "geometry": { "type": "Point", "coordinates": [ 144.971266479841006, -37.8060684577258 ] } },
{ "type": "Feature", "properties": { "feature_name": "Melbourne Private Hospital", "theme": "Health Services", "sub_theme": "Private Hospital" }, "geometry": { "type": "Point", "coordinates": [ 144.957288377249995, -37.7983111309698 ] } },
{ "type": "Feature", "properties": { "feature_name": "Visy Park", "theme": "Leisure/Recreation", "sub_theme": "Major Sports & Recreation Facility" }, "geometry": { "type": "Point", "coordinates": [ 144.961982577552988, -37.783430394034703 ] } },
{ "type": "Feature", "properties": { "feature_name": "Batman Park", "theme": "Leisure/Recreation", "sub_theme": "Informal Outdoor Facility (Park/Garden/Reserve)" }, "geometry": { "type": "Point", "coordinates": [ 144.956665812218006, -37.821846094960101 ] } },
{ "type": "Feature", "properties": { "feature_name": "Polly Woodside", "theme": "Place Of Assembly", "sub_theme": "Art Gallery/Museum" }, "geometry": { "type": "Point", "coordinates": [ 144.953478052064014, -37.824257426614501 ] } },
{ "type": "Feature", "properties": { "feature_name": "Melbourne Town Hall", "theme": "Community Use", "sub_theme": "Public Buildings" }, "geometry": { "type": "Point", "coordinates": [ 144.966542722283009, -37.8150754791411 ] } },
{ "type": "Feature", "properties": { "feature_name": "DFO South Wharf", "theme": "Mixed Use", "sub_theme": "Retail/Office" }, "geometry": { "type": "Point", "coordinates": [ 144.949794297819011, -37.824887401234001 ] } },
{ "type": "Feature", "properties": { "feature_name": "The Ian Potter Centre: NGV Australia", "theme": "Place Of Assembly", "sub_theme": "Art Gallery/Museum" }, "geometry": { "type": "Point", "coordinates": [ 144.969899048342995, -37.817483142319702 ] } },
{ "type": "Feature", "properties": { "feature_name": "AAMI Park", "theme": "Leisure/Recreation", "sub_theme": "Major Sports & Recreation Facility" }, "geometry": { "type": "Point", "coordinates": [ 144.983802978660009, -37.824725267396303 ] } },
{ "type": "Feature", "properties": { "feature_name": "Margaret Court Arena", "theme": "Leisure/Recreation", "sub_theme": "Major Sports & Recreation Facility" }, "geometry": { "type": "Point", "coordinates": [ 144.977591098955003, -37.8213252086842 ] } },
{ "type": "Feature", "properties": { "feature_name": "Riverslide Skate Park", "theme": "Leisure/Recreation", "sub_theme": "Informal Outdoor Facility (Park/Garden/Reserve)" }, "geometry": { "type": "Point", "coordinates": [ 144.972951789290988, -37.820788712244799 ] } },
{ "type": "Feature", "properties": { "feature_name": "Royal Park", "theme": "Leisure/Recreation", "sub_theme": "Informal Outdoor Facility (Park/Garden/Reserve)" }, "geometry": { "type": "Point", "coordinates": [ 144.953834240647012, -37.790617425658098 ] } },
{ "type": "Feature", "properties": { "feature_name": "Yarra Park", "theme": "Leisure/Recreation", "sub_theme": "Informal Outdoor Facility (Park/Garden/Reserve)" }, "geometry": { "type": "Point", "coordinates": [ 144.986671109615003, -37.820469374101002 ] } },
{ "type": "Feature", "properties": { "feature_name": "Melbourne Central Railway Station", "theme": "Transport", "sub_theme": "Railway Station" }, "geometry": { "type": "Point", "coordinates": [ 144.962670059538993, -37.809775932588799 ] } },
{ "type": "Feature", "properties": { "feature_name": "Victoria Police Museum", "theme": "Place Of Assembly", "sub_theme": "Art Gallery/Museum" }, "geometry": { "type": "Point", "coordinates": [ 144.954039975196991, -37.822218277440903 ] } },
{ "type": "Feature", "properties": { "feature_name": "Melbourne Visitor Centre", "theme": "Community Use", "sub_theme": "Visitor Centre" }, "geometry": { "type": "Point", "coordinates": [ 144.967937138226006, -37.817735240200598 ] } },
{ "type": "Feature", "properties": { "feature_name": "Australian Centre For The Moving Image (ACMI)", "theme": "Place Of Assembly", "sub_theme": "Art Gallery/Museum" }, "geometry": { "type": "Point", "coordinates": [ 144.96907043132299, -37.817610732720198 ] } },
{ "type": "Feature", "properties": { "feature_name": "Sinclair's Cottage", "theme": "Place Of Assembly", "sub_theme": "Art Gallery/Museum" }, "geometry": { "type": "Point", "coordinates": [ 144.98055499272499, -37.814540748801399 ] } },
{ "type": "Feature", "properties": { "feature_name": "Etihad Stadium", "theme": "Leisure/Recreation", "sub_theme": "Major Sports & Recreation Facility" }, "geometry": { "type": "Point", "coordinates": [ 144.947496254546991, -37.816176047174203 ] } },
{ "type": "Feature", "properties": { "feature_name": "Lincoln Square", "theme": "Leisure/Recreation", "sub_theme": "Informal Outdoor Facility (Park/Garden/Reserve)" }, "geometry": { "type": "Point", "coordinates": [ 144.962760852233004, -37.802791968973203 ] } },
{ "type": "Feature", "properties": { "feature_name": "Carlton Football Club", "theme": "Leisure/Recreation", "sub_theme": "Major Sports & Recreation Facility" }, "geometry": { "type": "Point", "coordinates": [ 144.961967841558987, -37.7840864379557 ] } },
{ "type": "Feature", "properties": { "feature_name": "Kings Domain", "theme": "Leisure/Recreation", "sub_theme": "Informal Outdoor Facility (Park/Garden/Reserve)" }, "geometry": { "type": "Point", "coordinates": [ 144.974107925144011, -37.825523979583302 ] } },
{ "type": "Feature", "properties": { "feature_name": "Southgate Arts and Leisure Precinct", "theme": "Mixed Use", "sub_theme": "Retail/Office/Carpark" }, "geometry": { "type": "Point", "coordinates": [ 144.965989052839006, -37.820224578659698 ] } },
{ "type": "Feature", "properties": { "feature_name": "Australian Centre for Contemporary Art", "theme": "Place Of Assembly", "sub_theme": "Art Gallery/Museum" }, "geometry": { "type": "Point", "coordinates": [ 144.967252924592998, -37.826604543268601 ] } },
{ "type": "Feature", "properties": { "feature_name": "Federation Square", "theme": "Leisure/Recreation", "sub_theme": "Informal Outdoor Facility (Park/Garden/Reserve)" }, "geometry": { "type": "Point", "coordinates": [ 144.968963600783013, -37.817851657168397 ] } },
{ "type": "Feature", "properties": { "feature_name": "Royal Womens Hospital", "theme": "Health Services", "sub_theme": "Public Hospital" }, "geometry": { "type": "Point", "coordinates": [ 144.954897253855989, -37.798889246008798 ] } },
{ "type": "Feature", "properties": { "feature_name": "South Kensington Railway Station", "theme": "Transport", "sub_theme": "Railway Station" }, "geometry": { "type": "Point", "coordinates": [ 144.925837749712997, -37.799727053773502 ] } },
{ "type": "Feature", "properties": { "feature_name": "National Sports Museum", "theme": "Place Of Assembly", "sub_theme": "Art Gallery/Museum" }, "geometry": { "type": "Point", "coordinates": [ 144.984669809380989, -37.818954490946197 ] } },
{ "type": "Feature", "properties": { "feature_name": "Flagstaff Gardens", "theme": "Leisure/Recreation", "sub_theme": "Informal Outdoor Facility (Park/Garden/Reserve)" }, "geometry": { "type": "Point", "coordinates": [ 144.95469605523499, -37.811122288927699 ] } },
{ "type": "Feature", "properties": { "feature_name": "Westgate Park", "theme": "Leisure/Recreation", "sub_theme": "Informal Outdoor Facility (Park/Garden/Reserve)" }, "geometry": { "type": "Point", "coordinates": [ 144.908824792697999, -37.8314918578874 ] } },
{ "type": "Feature", "properties": { "feature_name": "Flagstaff Railway Station", "theme": "Transport", "sub_theme": "Railway Station" }, "geometry": { "type": "Point", "coordinates": [ 144.956318211113, -37.812235651462601 ] } },
{ "type": "Feature", "properties": { "feature_name": "Newmarket Reserve", "theme": "Leisure/Recreation", "sub_theme": "Informal Outdoor Facility (Park/Garden/Reserve)" }, "geometry": { "type": "Point", "coordinates": [ 144.922972125346007, -37.787847334123398 ] } },
{ "type": "Feature", "properties": { "feature_name": "J.J Holland Park", "theme": "Leisure/Recreation", "sub_theme": "Informal Outdoor Facility (Park/Garden/Reserve)" }, "geometry": { "type": "Point", "coordinates": [ 144.923837074813008, -37.7982358832177 ] } },
{ "type": "Feature", "properties": { "feature_name": "Royal Childrens Hospital", "theme": "Health Services", "sub_theme": "Public Hospital" }, "geometry": { "type": "Point", "coordinates": [ 144.950048264678003, -37.794206084727797 ] } },
{ "type": "Feature", "properties": { "feature_name": "Riverside Park", "theme": "Leisure/Recreation", "sub_theme": "Outdoor Recreation Facility (Zoo, Golf Course)" }, "geometry": { "type": "Point", "coordinates": [ 144.915607065132008, -37.794837531582502 ] } },
{ "type": "Feature", "properties": { "feature_name": "Fitzroy Gardens", "theme": "Leisure/Recreation", "sub_theme": "Informal Outdoor Facility (Park/Garden/Reserve)" }, "geometry": { "type": "Point", "coordinates": [ 144.980455714669006, -37.812961633157897 ] } },
{ "type": "Feature", "properties": { "feature_name": "Peter Maccallum Cancer Institute", "theme": "Health Services", "sub_theme": "Public Hospital" }, "geometry": { "type": "Point", "coordinates": [ 144.977400949062996, -37.811476673202598 ] } },
{ "type": "Feature", "properties": { "feature_name": "The Melbourne Athenaeum Library", "theme": "Place Of Assembly", "sub_theme": "Library" }, "geometry": { "type": "Point", "coordinates": [ 144.967291289940988, -37.814885575641597 ] } },
{ "type": "Feature", "properties": { "feature_name": "Queen Victoria Market", "theme": "Retail", "sub_theme": "Retail" }, "geometry": { "type": "Point", "coordinates": [ 144.957158515055994, -37.807500201807301 ] } },
{ "type": "Feature", "properties": { "feature_name": "State Library Victoria", "theme": "Community Use", "sub_theme": "Public Buildings" }, "geometry": { "type": "Point", "coordinates": [ 144.964330322396989, -37.809985220122599 ] } },
{ "type": "Feature", "properties": { "feature_name": "Regent Theatre", "theme": "Place Of Assembly", "sub_theme": "Theatre Live" }, "geometry": { "type": "Point", "coordinates": [ 144.967916735261014, -37.816001474417902 ] } },
{ "type": "Feature", "properties": { "feature_name": "Supreme Court", "theme": "Community Use", "sub_theme": "Public Buildings" }, "geometry": { "type": "Point", "coordinates": [ 144.957894024263993, -37.814149418281403 ] } },
{ "type": "Feature", "properties": { "feature_name": "Richmond Football Club", "theme": "Leisure/Recreation", "sub_theme": "Informal Outdoor Facility (Park/Garden/Reserve)" }, "geometry": { "type": "Point", "coordinates": [ 144.988156318780995, -37.821674002200801 ] } },
{ "type": "Feature", "properties": { "feature_name": "Melbourne Convention Centre", "theme": "Place Of Assembly", "sub_theme": "Function/Conference/Exhibition Centre" }, "geometry": { "type": "Point", "coordinates": [ 144.952288281644002, -37.824904048465299 ] } },
{ "type": "Feature", "properties": { "feature_name": "Melbourne International Shooting Club", "theme": "Leisure/Recreation", "sub_theme": "Private Sports Club/Facility" }, "geometry": { "type": "Point", "coordinates": [ 144.913415802463987, -37.829284492982602 ] } },
{ "type": "Feature", "properties": { "feature_name": "Fox Classic Car Collection", "theme": "Place Of Assembly", "sub_theme": "Art Gallery/Museum" }, "geometry": { "type": "Point", "coordinates": [ 144.948496661708987, -37.821374430148097 ] } },
{ "type": "Feature", "properties": { "feature_name": "ANZ 'Gothic' Bank", "theme": "Mixed Use", "sub_theme": "Retail/Office/Carpark" }, "geometry": { "type": "Point", "coordinates": [ 144.961673719241986, -37.816158066602902 ] } },
{ "type": "Feature", "properties": { "feature_name": "Port of Melbourne", "theme": "Transport", "sub_theme": "Transport Terminal" }, "geometry": { "type": "Point", "coordinates": [ 144.917534323750004, -37.813738436267101 ] } },
{ "type": "Feature", "properties": { "feature_name": "FairFax Studio", "theme": "Place Of Assembly", "sub_theme": "Theatre Live" }, "geometry": { "type": "Point", "coordinates": [ 144.968836241692003, -37.821668458188697 ] } },
{ "type": "Feature", "properties": { "feature_name": "Epworth Freemasons Hospital : Medical Centre", "theme": "Health Services", "sub_theme": "Private Hospital" }, "geometry": { "type": "Point", "coordinates": [ 144.982336768181995, -37.809344458723103 ] } },
{ "type": "Feature", "properties": { "feature_name": "Melbourne Central Railway Station", "theme": "Transport", "sub_theme": "Railway Station" }, "geometry": { "type": "Point", "coordinates": [ 144.961690613830001, -37.810599240236897 ] } },
{ "type": "Feature", "properties": { "feature_name": "Melbourne Central Railway Station", "theme": "Transport", "sub_theme": "Railway Station" }, "geometry": { "type": "Point", "coordinates": [ 144.963100728701988, -37.810893004740102 ] } },
{ "type": "Feature", "properties": { "feature_name": "Melbourne Visitor Booth", "theme": "Community Use", "sub_theme": "Visitor Centre" }, "geometry": { "type": "Point", "coordinates": [ 144.964425882562011, -37.8139525061193 ] } },
{ "type": "Feature", "properties": { "feature_name": "Powlett Reserve", "theme": "Leisure/Recreation", "sub_theme": "Informal Outdoor Facility (Park/Garden/Reserve)" }, "geometry": { "type": "Point", "coordinates": [ 144.987275671763001, -37.811692988249803 ] } },
{ "type": "Feature", "properties": { "feature_name": "State Theatre", "theme": "Place Of Assembly", "sub_theme": "Theatre Live" }, "geometry": { "type": "Point", "coordinates": [ 144.968469643743987, -37.821280634977299 ] } },
{ "type": "Feature", "properties": { "feature_name": "St Martins Youth Arts Centre", "theme": "Place Of Assembly", "sub_theme": "Theatre Live" }, "geometry": { "type": "Point", "coordinates": [ 144.981142173850003, -37.835242953128898 ] } },
{ "type": "Feature", "properties": { "feature_name": "IMAX Melbourne", "theme": "Place Of Assembly", "sub_theme": "Cinema" }, "geometry": { "type": "Point", "coordinates": [ 144.970639929886005, -37.803431556190297 ] } },
{ "type": "Feature", "properties": { "feature_name": "Richmond Railway Station (Richmond) - Train stop", "theme": "Transport", "sub_theme": "Railway Station" }, "geometry": { "type": "Point", "coordinates": [ 144.989400751663993, -37.8238992659834 ] } },
{ "type": "Feature", "properties": { "feature_name": "Parliament Railway Station", "theme": "Transport", "sub_theme": "Railway Station" }, "geometry": { "type": "Point", "coordinates": [ 144.973742010010994, -37.812157278917297 ] } },
{ "type": "Feature", "properties": { "feature_name": "Showgrounds Railway Station (Flemington)", "theme": "Transport", "sub_theme": "Railway Station" }, "geometry": { "type": "Point", "coordinates": [ 144.914902626774989, -37.783465121624403 ] } },
{ "type": "Feature", "properties": { "feature_name": "Alfred Hospital", "theme": "Health Services", "sub_theme": "Public Hospital" }, "geometry": { "type": "Point", "coordinates": [ 144.981786260765006, -37.8462631206461 ] } },
{ "type": "Feature", "properties": { "feature_name": "Comedy Theatre", "theme": "Place Of Assembly", "sub_theme": "Theatre Live" }, "geometry": { "type": "Point", "coordinates": [ 144.970133118619998, -37.810205394516302 ] } },
{ "type": "Feature", "properties": { "feature_name": "La Mama Theatre", "theme": "Place Of Assembly", "sub_theme": "Theatre Live" }, "geometry": { "type": "Point", "coordinates": [ 144.967669503082988, -37.799130495673303 ] } },
{ "type": "Feature", "properties": { "feature_name": "Forum Theatre", "theme": "Place Of Assembly", "sub_theme": "Theatre Live" }, "geometry": { "type": "Point", "coordinates": [ 144.969386556997989, -37.816485409696 ] } },
{ "type": "Feature", "properties": { "feature_name": "Royal Dental Hospital", "theme": "Health Services", "sub_theme": "Public Hospital" }, "geometry": { "type": "Point", "coordinates": [ 144.964526842766986, -37.799506590441602 ] } },
{ "type": "Feature", "properties": { "feature_name": "Webb Bridge", "theme": "Transport", "sub_theme": "Bridge" }, "geometry": { "type": "Point", "coordinates": [ 144.947291011905008, -37.823205238450697 ] } },
{ "type": "Feature", "properties": { "feature_name": "David Jones", "theme": "Retail", "sub_theme": "Department Store" }, "geometry": { "type": "Point", "coordinates": [ 144.964373486797996, -37.813312726063799 ] } },
{ "type": "Feature", "properties": { "feature_name": "Playhouse", "theme": "Place Of Assembly", "sub_theme": "Theatre Live" }, "geometry": { "type": "Point", "coordinates": [ 144.968337832721005, -37.821812458301601 ] } },
{ "type": "Feature", "properties": { "feature_name": "Victorian Arts Centre", "theme": "Place Of Assembly", "sub_theme": "Art Gallery/Museum" }, "geometry": { "type": "Point", "coordinates": [ 144.968837288152997, -37.821994733576801 ] } },
{ "type": "Feature", "properties": { "feature_name": "The Royal Victorian Eye & Ear Hospital", "theme": "Health Services", "sub_theme": "Public Hospital" }, "geometry": { "type": "Point", "coordinates": [ 144.976268275081992, -37.808752282986802 ] } },
{ "type": "Feature", "properties": { "feature_name": "Central Pier", "theme": "Place Of Assembly", "sub_theme": "Function/Conference/Exhibition Centre" }, "geometry": { "type": "Point", "coordinates": [ 144.943475014215011, -37.816517730770201 ] } },
{ "type": "Feature", "properties": { "feature_name": "NGV International", "theme": "Community Use", "sub_theme": "Public Buildings" }, "geometry": { "type": "Point", "coordinates": [ 144.969342535451005, -37.823013500086901 ] } },
{ "type": "Feature", "properties": { "feature_name": "Macaulay Railway Station (North Melbourne) - Train stop", "theme": "Transport", "sub_theme": "Railway Station" }, "geometry": { "type": "Point", "coordinates": [ 144.936190756631987, -37.794964001385999 ] } },
{ "type": "Feature", "properties": { "feature_name": "Kensington Railway Station", "theme": "Transport", "sub_theme": "Railway Station" }, "geometry": { "type": "Point", "coordinates": [ 144.93071020751799, -37.793914012637302 ] } },
{ "type": "Feature", "properties": { "feature_name": "Royal Botanic Gardens", "theme": "Leisure/Recreation", "sub_theme": "Informal Outdoor Facility (Park/Garden/Reserve)" }, "geometry": { "type": "Point", "coordinates": [ 144.980850432750998, -37.830663158323297 ] } },
{ "type": "Feature", "properties": { "feature_name": "Darling Square", "theme": "Leisure/Recreation", "sub_theme": "Informal Outdoor Facility (Park/Garden/Reserve)" }, "geometry": { "type": "Point", "coordinates": [ 144.989062559512007, -37.812992069320003 ] } },
{ "type": "Feature", "properties": { "feature_name": "The Ian Potter Museum Of Art", "theme": "Place Of Assembly", "sub_theme": "Art Gallery/Museum" }, "geometry": { "type": "Point", "coordinates": [ 144.964156669701993, -37.797393959550298 ] } },
{ "type": "Feature", "properties": { "feature_name": "QV Village", "theme": "Mixed Use", "sub_theme": "Retail/Office/Residential/Carpark" }, "geometry": { "type": "Point", "coordinates": [ 144.965714574013987, -37.810689189745403 ] } },
{ "type": "Feature", "properties": { "feature_name": "Parliament Reserve", "theme": "Leisure/Recreation", "sub_theme": "Informal Outdoor Facility (Park/Garden/Reserve)" }, "geometry": { "type": "Point", "coordinates": [ 144.973462202838988, -37.809852620637997 ] } },
{ "type": "Feature", "properties": { "feature_name": "North Melbourne Recreation Centre (Gymnasium)", "theme": "Leisure/Recreation", "sub_theme": "Gymnasium/Health Club" }, "geometry": { "type": "Point", "coordinates": [ 144.940368286395, -37.799705119793103 ] } },
{ "type": "Feature", "properties": { "feature_name": "Conservatory", "theme": "Community Use", "sub_theme": "Public Buildings" }, "geometry": { "type": "Point", "coordinates": [ 144.978559743099993, -37.814002127195003 ] } },
{ "type": "Feature", "properties": { "feature_name": "Freshwater Place", "theme": "Mixed Use", "sub_theme": "Retail/Office/Residential/Carpark" }, "geometry": { "type": "Point", "coordinates": [ 144.962461448429991, -37.821974548944603 ] } }
]
}
