{
"type": "FeatureCollection",
"name": "public_toilets_clean",
"crs": { "type": "name", "properties": { "name": "urn:ogc:def:crs:OGC:1.3:CRS84" } },
"features": [
{ "type": "Feature", "properties": { "name": "Public Toilet - Toilet 4 - Market Street (Opposite 74 Market Street)", "wheelchair": "yes", "operator": "City of Melbourne" }, "geometry": { "type": "Point", "coordinates": [ 144.960254335287942, -37.817469892096391 ] } },
{ "type": "Feature", "properties": { "name": "Public Toilet - Toilet 173 - JJ Holland Park, Skate Park (113 Kensington Road)", "wheelchair": "yes", "operator": "City of Melbourne" }, "geometry": { "type": "Point", "coordinates": [ 144.921105843921168, -37.798064023886866 ] } },
{ "type": "Feature", "properties": { "name": "Public Toilet - Toilet 11 - Lonsdale Street (Opposite 88 Lonsdale Street)", "wheelchair": "yes", "operator": "City of Melbourne" }, "geometry": { "type": "Point", "coordinates": [ 144.969902463304862, -37.810035679928596 ] } },
{ "type": "Feature", "properties": { "name": "Public Toilet - Toilet 12 - Exhibition Street (Opposite 242 Exhibition Street)", "wheelchair": "no", "operator": "City of Melbourne" }, "geometry": { "type": "Point", "coordinates": [ 144.969407118710592, -37.809546046362321 ] } },
{ "type": "Feature", "properties": { "name": "Public Toilet - Toilet 3 - Flinders Street (399 Flinders Street)", "wheelchair": "yes", "operator": "City of Melbourne" }, "geometry": { "type": "Point", "coordinates": [ 144.961276831217816, -37.819406114138467 ] } },
{ "type": "Feature", "properties": { "name": "Public Toilet - Toilet 44 - Fawkner Park, Opposite 150W Toorak Road", "wheelchair": "yes", "operator": "City of Melbourne" }, "geometry": { "type": "Point", "coordinates": [ 144.984389219941676, -37.83825284124979 ] } },
{ "type": "Feature", "properties": { "name": "Public Toilet - Toilet 136 - Ievers Reserve - Flemington Road", "wheelchair": "yes", "operator": "City of Melbourne" }, "geometry": { "type": "Point", "coordinates": [ 144.951966651264684, -37.796798998057568 ] } },
{ "type": "Feature", "properties": { "name": "Public Toilet - Toilet 124 - Nicholson Street (1A Nicholson Street)", "wheelchair": "no", "operator": "City of Melbourne" }, "geometry": { "type": "Point", "coordinates": [ 144.973076955637026, -37.809452028942459 ] } },
{ "type": "Feature", "properties": { "name": "Public Toilet - Toilet 131 - Royal Park (Flemington Rd - Near North Park Tennis Club)", "wheelchair": "yes", "operator": "City of Melbourne" }, "geometry": { "type": "Point", "coordinates": [ 144.943669050968651, -37.790174410412384 ] } },
{ "type": "Feature", "properties": { "name": "Public Toilet - Toilet 170 - Queensberry Street (Opposite 530 Queensberry Street)", "wheelchair": "no", "operator": "City of Melbourne" }, "geometry": { "type": "Point", "coordinates": [ 144.949865179569684, -37.803077866412252 ] } },
{ "type": "Feature", "properties": { "name": "Public Toilet - Toilet 46 - Bourke Street (opposite 225 Bourke Street)", "wheelchair": "yes", "operator": "City of Melbourne" }, "geometry": { "type": "Point", "coordinates": [ 144.966896589681397, -37.813245433601978 ] } },
{ "type": "Feature", "properties": { "name": "Public Toilet - Queen Victoria Market - (Meat Hall / \"H\" Shed)", "wheelchair": "no", "operator": "City of Melbourne" }, "geometry": { "type": "Point", "coordinates": [ 144.958747004640884, -37.806821292018469 ] } },
{ "type": "Feature", "properties": { "name": "Public Toilet - Toilet 178 -  Argyle Place North (Opposite 4 Argyle Place North)", "wheelchair": "yes", "operator": "City of Melbourne" }, "geometry": { "type": "Point", "coordinates": [ 144.966424039887016, -37.802076294207453 ] } },
{ "type": "Feature", "properties": { "name": "Public Toilet - Toilet 55 - Royal Park (Nature Play, Opposite 51 Gatehouse Street)", "wheelchair": "yes", "operator": "City of Melbourne" }, "geometry": { "type": "Point", "coordinates": [ 144.952142962802014, -37.795523148389002 ] } },
{ "type": "Feature", "properties": { "name": "Public Toilet - Toilet 41 - Flinders Street (No 245 Flinders Street Station)", "wheelchair": "yes", "operator": "City of Melbourne" }, "geometry": { "type": "Point", "coordinates": [ 144.966264255263809, -37.817903197056161 ] } },
{ "type": "Feature", "properties": { "name": "Public Toilet - Toilet 140 - Queensberry Street (Opposite 286 Queensberry Street)", "wheelchair": "no", "operator": "City of Melbourne" }, "geometry": { "type": "Point", "coordinates": [ 144.959090667569455, -37.803994634967303 ] } },
{ "type": "Feature", "properties": { "name": "Public Toilet - Toilet 106 - Kings Domain Government House Drive", "wheelchair": "no", "operator": "City of Melbourne" }, "geometry": { "type": "Point", "coordinates": [ 144.974647783878794, -37.82691574923448 ] } },
{ "type": "Feature", "properties": { "name": "Public Toilet - Saint Mangos Lane, The Palladio (New Quay)", "wheelchair": "yes", "operator": "City of Melbourne" }, "geometry": { "type": "Point", "coordinates": [ 144.941682167120149, -37.814358311080689 ] } },
{ "type": "Feature", "properties": { "name": "Public Toilet - Royal Park Golf Course Club House", "wheelchair": "no", "operator": "City of Melbourne" }, "geometry": { "type": "Point", "coordinates": [ 144.95614252894822, -37.781871317866852 ] } },
{ "type": "Feature", "properties": { "name": "Public Toilet - Newmarket Reserve (26 Smithfield Road)", "wheelchair": "no", "operator": "City of Melbourne" }, "geometry": { "type": "Point", "coordinates": [ 144.92356372197429, -37.788488821143041 ] } },
{ "type": "Feature", "properties": { "name": "Public Toilet - Toilet 102 - Fawkner Park, North Pavilion (Female)", "wheelchair": "no", "operator": "City of Melbourne" }, "geometry": { "type": "Point", "coordinates": [ 144.981227014622135, -37.840017793263222 ] } },
{ "type": "Feature", "properties": { "name": "Public Toilet - Toilet 120 - Royal Park, Wetland (off Oak Street)", "wheelchair": "yes", "operator": "City of Melbourne" }, "geometry": { "type": "Point", "coordinates": [ 144.94185635299425, -37.783032484176857 ] } },
{ "type": "Feature", "properties": { "name": "Public Toilet - Toilet 172 - Southbank Promenade (opposite Esso House)", "wheelchair": "yes", "operator": "City of Melbourne" }, "geometry": { "type": "Point", "coordinates": [ 144.964219727994561, -37.820342128586269 ] } },
{ "type": "Feature", "properties": { "name": "Public Toilet - Toilet 109 - Kings Domain Myer Music Bowl Rear of", "wheelchair": "yes", "operator": "City of Melbourne" }, "geometry": { "type": "Point", "coordinates": [ 144.975280957334007, -37.822891598588569 ] } },
{ "type": "Feature", "properties": { "name": "Public Toilet - Toilet 125 - Gordon Reserve (74-108 Spring Street)", "wheelchair": "no", "operator": "City of Melbourne" }, "geometry": { "type": "Point", "coordinates": [ 144.973925558866284, -37.812240775587128 ] } },
{ "type": "Feature", "properties": { "name": "Public Toilet - Toilet 119 - Fitzroy Gardens Toilets (150 Clarendon Street)", "wheelchair": "yes", "operator": "City of Melbourne" }, "geometry": { "type": "Point", "coordinates": [ 144.983074936651661, -37.812036157043643 ] } },
{ "type": "Feature", "properties": { "name": "Public Toilet - Toilet 107 - Alexandra Park", "wheelchair": "yes", "operator": "City of Melbourne" }, "geometry": { "type": "Point", "coordinates": [ 144.98181166075949, -37.827643046165278 ] } },
{ "type": "Feature", "properties": { "name": "Public Toilet - Toilet 1 - Lonsdale Street (Opposite 581 Lonsdale Street)", "wheelchair": "yes", "operator": "City of Melbourne" }, "geometry": { "type": "Point", "coordinates": [ 144.955117946437809, -37.814345522392365 ] } },
{ "type": "Feature", "properties": { "name": "Public Toilet - Toilet 145 - Carlton Gardens South (Opposite 39 Rathdowne Street)", "wheelchair": "yes", "operator": "City of Melbourne" }, "geometry": { "type": "Point", "coordinates": [ 144.969202702200192, -37.806258933018739 ] } },
{ "type": "Feature", "properties": { "name": "Public Toilet - Toilet 7 - Latrobe Street (Adjacent 120 La Trobe Street)", "wheelchair": "no", "operator": "City of Melbourne" }, "geometry": { "type": "Point", "coordinates": [ 144.965648845522708, -37.808942068473357 ] } },
{ "type": "Feature", "properties": { "name": "Public Toilet - Toilet 138 - Carlton Gardens North (Opposite 199 Rathdowne Street)", "wheelchair": "yes", "operator": "City of Melbourne" }, "geometry": { "type": "Point", "coordinates": [ 144.969821287215041, -37.802645554985112 ] } },
{ "type": "Feature", "properties": { "name": "Public Toilet - Ron Barassi Senior Park Pavilion", "wheelchair": "U", "operator": "City of Melbourne" }, "geometry": { "type": "Point", "coordinates": [ 144.93400271183998, -37.817220590528038 ] } },
{ "type": "Feature", "properties": { "name": "Public Toilet - Toilet 112 - Alexandra Gardens (Riverslide Skate Park)", "wheelchair": "yes", "operator": "City of Melbourne" }, "geometry": { "type": "Point", "coordinates": [ 144.973312908874306, -37.820355272841098 ] } },
{ "type": "Feature", "properties": { "name": "Public Toilet - Toilet 179 - Lincoln Square (138-142 Bouverie Street)", "wheelchair": "yes", "operator": "City of Melbourne" }, "geometry": { "type": "Point", "coordinates": [ 144.962268126957667, -37.802711824554478 ] } },
{ "type": "Feature", "properties": { "name": "Public Toilet - Victoria Harbour, Shed 3 (North Wharf Road)", "wheelchair": "no", "operator": "City of Melbourne" }, "geometry": { "type": "Point", "coordinates": [ 144.937665405305637, -37.819795975740334 ] } },
{ "type": "Feature", "properties": { "name": "Public Toilet - Toilet 118 - Fitzroy Gardens (2 Lansdowne Street)", "wheelchair": "yes", "operator": "City of Melbourne" }, "geometry": { "type": "Point", "coordinates": [ 144.977588779954857, -37.815278082082735 ] } },
{ "type": "Feature", "properties": { "name": "Public Toilet - Toilet 34 - Franklin Street (Opposite 80 Franklin Street)", "wheelchair": "yes", "operator": "City of Melbourne" }, "geometry": { "type": "Point", "coordinates": [ 144.960186874937705, -37.808233470476701 ] } },
{ "type": "Feature", "properties": { "name": "Public Toilet - Toilet 137 - Faraday Street (Opposite 208-212 Faraday Street)", "wheelchair": "no", "operator": "City of Melbourne" }, "geometry": { "type": "Point", "coordinates": [ 144.967593880097297, -37.798709597015986 ] } },
{ "type": "Feature", "properties": { "name": "Public Toilet - Toilet 103 - Kings Domain South (Opposite 169 Domain Road)", "wheelchair": "yes", "operator": "City of Melbourne" }, "geometry": { "type": "Point", "coordinates": [ 144.981784046350612, -37.833938266337292 ] } },
{ "type": "Feature", "properties": { "name": "Public Toilet - Toilet 6 - Elizabeth Street (Toilet Adjacent 200 Elizabeth Street)", "wheelchair": "no", "operator": "City of Melbourne" }, "geometry": { "type": "Point", "coordinates": [ 144.963097210240448, -37.813837792176308 ] } },
{ "type": "Feature", "properties": { "name": "Public Toilet - Toilet 142 - Queensberry Street (Adjacent 179 Queensberry Street)", "wheelchair": "no", "operator": "City of Melbourne" }, "geometry": { "type": "Point", "coordinates": [ 144.962850219456129, -37.804639707147217 ] } },
{ "type": "Feature", "properties": { "name": "Public Toilet - Victoria Harbour, Shed 2 (North Wharf Road)", "wheelchair": "yes", "operator": "City of Melbourne" }, "geometry": { "type": "Point", "coordinates": [ 144.934238511790397, -37.818924455699296 ] } },
{ "type": "Feature", "properties": { "name": "Public Toilet - Royal Park Brens Pavilion", "wheelchair": "no", "operator": "City of Melbourne" }, "geometry": { "type": "Point", "coordinates": [ 144.955000875873395, -37.786221248397048 ] } },
{ "type": "Feature", "properties": { "name": "Public Toilet - Toilet 181 - Point Park (Point Park Crescent)", "wheelchair": "yes", "operator": "City of Melbourne" }, "geometry": { "type": "Point", "coordinates": [ 144.941827606654783, -37.823310834435333 ] } },
{ "type": "Feature", "properties": { "name": "Public Toilet - Toilet 127 - Princes Park Royal Parade (near Park Street)", "wheelchair": "yes", "operator": "City of Melbourne" }, "geometry": { "type": "Point", "coordinates": [ 144.960465918991019, -37.778949609006396 ] } },
{ "type": "Feature", "properties": { "name": "Public Toilet - Toilet 42 - Fawkner Park, Opposite 55 Commercial Road", "wheelchair": "yes", "operator": "City of Melbourne" }, "geometry": { "type": "Point", "coordinates": [ 144.9826144313013, -37.845206563009405 ] } },
{ "type": "Feature", "properties": { "name": "Public Toilet - Toilet 122 - Treasury Gardens (Store and Toilet)", "wheelchair": "yes", "operator": "City of Melbourne" }, "geometry": { "type": "Point", "coordinates": [ 144.977467007448467, -37.813418435008913 ] } },
{ "type": "Feature", "properties": { "name": "Public Toilet - Toilet 162 - JJ Holland Park (Opposite, 48 Altona Street)", "wheelchair": "yes", "operator": "City of Melbourne" }, "geometry": { "type": "Point", "coordinates": [ 144.926424667562458, -37.798125461506082 ] } },
{ "type": "Feature", "properties": { "name": "Public Toilet - Queen Victoria Market (465 Queen Street)", "wheelchair": "yes", "operator": "City of Melbourne" }, "geometry": { "type": "Point", "coordinates": [ 144.957955265956542, -37.807831221471957 ] } },
{ "type": "Feature", "properties": { "name": "Public Toilet - Toilet 52 - Princes Park (Adjacent Southern Sports Pavilion)", "wheelchair": "yes", "operator": "City of Melbourne" }, "geometry": { "type": "Point", "coordinates": [ 144.959494790771856, -37.787904827147685 ] } },
{ "type": "Feature", "properties": { "name": "Public Toilet - Toilet 13 - Queensberry Street (Opposite 530 Queensberry Street)", "wheelchair": null, "operator": "City of Melbourne" }, "geometry": { "type": "Point", "coordinates": [ 144.949946320919224, -37.803094275484256 ] } },
{ "type": "Feature", "properties": { "name": "Public Toilet - Toilet 154 - Flagstaff Gardens (cnr William & Dudley)", "wheelchair": "yes", "operator": "City of Melbourne" }, "geometry": { "type": "Point", "coordinates": [ 144.955040186356939, -37.808913242351316 ] } },
{ "type": "Feature", "properties": { "name": "Public Toilet - Toilet 14 - Flinders Street (27 Flinders Street)", "wheelchair": "no", "operator": "City of Melbourne" }, "geometry": { "type": "Point", "coordinates": [ 144.972798365768966, -37.815989825999871 ] } },
{ "type": "Feature", "properties": { "name": "Public Toilet - Toilet 169 - Batman Park (2A Spencer Street)", "wheelchair": "yes", "operator": "City of Melbourne" }, "geometry": { "type": "Point", "coordinates": [ 144.955578093139621, -37.821720681669966 ] } },
{ "type": "Feature", "properties": { "name": "Public Toilet - Toilet 6 - Elizabeth Street (Toilet Adjacent 200 Elizabeth Street)", "wheelchair": "no", "operator": "City of Melbourne" }, "geometry": { "type": "Point", "coordinates": [ 144.962922726450671, -37.813439207943993 ] } },
{ "type": "Feature", "properties": { "name": "Public Toilet - Toilet 133- Canning Street Reserve (49 Princes Street)", "wheelchair": "no", "operator": "City of Melbourne" }, "geometry": { "type": "Point", "coordinates": [ 144.973994897618269, -37.793011678725762 ] } },
{ "type": "Feature", "properties": { "name": "Public Toilet - Toilet 102 - Fawkner Park, North Pavilion (Male)", "wheelchair": "no", "operator": "City of Melbourne" }, "geometry": { "type": "Point", "coordinates": [ 144.981383087537353, -37.840147692965054 ] } },
{ "type": "Feature", "properties": { "name": "Public Toilet - Toilet 36 - Lonsdale Street (Opposite 424 Lonsdale Street)", "wheelchair": "yes", "operator": "City of Melbourne" }, "geometry": { "type": "Point", "coordinates": [ 144.960012146951897, -37.812933099245598 ] } },
{ "type": "Feature", "properties": { "name": "Public Toilet - Toilet 111 - Birrarung Marr Speakers Corner", "wheelchair": "yes", "operator": "City of Melbourne" }, "geometry": { "type": "Point", "coordinates": [ 144.975933223739759, -37.821004779775386 ] } },
{ "type": "Feature", "properties": { "name": "Public Toilet - Toilet 48 - Birrarung Marr (Opposite Artplay)", "wheelchair": "yes", "operator": "City of Melbourne" }, "geometry": { "type": "Point", "coordinates": [ 144.971059568268146, -37.818598872293919 ] } },
{ "type": "Feature", "properties": { "name": "Public Toilet - Toilet 104 - Kings Domain South (off Birdwood Avenue)", "wheelchair": "yes", "operator": "City of Melbourne" }, "geometry": { "type": "Point", "coordinates": [ 144.975182268207817, -37.830849124048981 ] } },
{ "type": "Feature", "properties": { "name": "Public Toilet - Toilet 110 - Queen Victoria Gardens (Linlithgow Avenue)", "wheelchair": "yes", "operator": "City of Melbourne" }, "geometry": { "type": "Point", "coordinates": [ 144.970985681798226, -37.822948288677665 ] } },
{ "type": "Feature", "properties": { "name": "Public Toilet - Queen Victoria Market (153 Victoria Street)", "wheelchair": "no", "operator": "City of Melbourne" }, "geometry": { "type": "Point", "coordinates": [ 144.956538442682728, -37.806121499077804 ] } },
{ "type": "Feature", "properties": { "name": "Public Toilet - Queen Victoria Market (Food Court - 65-81 Victoria Street)", "wheelchair": "no", "operator": "City of Melbourne" }, "geometry": { "type": "Point", "coordinates": [ 144.959057791589458, -37.806379618970517 ] } },
{ "type": "Feature", "properties": { "name": "Public Toilet - Toilet 43 - Queen Street (opposite 113 Queen Street)", "wheelchair": "yes", "operator": "City of Melbourne" }, "geometry": { "type": "Point", "coordinates": [ 144.961062073002665, -37.815838165017645 ] } },
{ "type": "Feature", "properties": { "name": "Public Toilet - Toilet 128 - Princes Park South Playground (Princes Park Drive)", "wheelchair": "yes", "operator": "City of Melbourne" }, "geometry": { "type": "Point", "coordinates": [ 144.963035360325591, -37.785598387452595 ] } },
{ "type": "Feature", "properties": { "name": "Public Toilet - Toilet 177 - Bellair Street (Opposite 180 Bellair Street)", "wheelchair": "yes", "operator": "City of Melbourne" }, "geometry": { "type": "Point", "coordinates": [ 144.930351861633113, -37.793732291282353 ] } },
{ "type": "Feature", "properties": { "name": "Public Toilet - Town Hall Melbourne (200 Collins Street)", "wheelchair": "yes", "operator": "City of Melbourne" }, "geometry": { "type": "Point", "coordinates": [ 144.966943285103184, -37.815215766196921 ] } },
{ "type": "Feature", "properties": { "name": "Public Toilet - Toilet 105 -Sturt Street Reserve (280 Sturt Street)", "wheelchair": "no", "operator": "City of Melbourne" }, "geometry": { "type": "Point", "coordinates": [ 144.965012228351867, -37.830132537548096 ] } },
{ "type": "Feature", "properties": { "name": "Public Toilet - Toilet 13 - Exhibition Street (Opposite 77 Exhibition Street)", "wheelchair": "yes", "operator": "City of Melbourne" }, "geometry": { "type": "Point", "coordinates": [ 144.971374094721114, -37.813846416649952 ] } },
{ "type": "Feature", "properties": { "name": "Public Toilet - Toilet 146 - Swanston Street (Opposite 475-511 Swanston Street)", "wheelchair": "no", "operator": "City of Melbourne" }, "geometry": { "type": "Point", "coordinates": [ 144.962648500306443, -37.806805767380247 ] } },
{ "type": "Feature", "properties": { "name": "Public Toilet - Toilet 117 - Powlett Reserve (Opposite 128 Albert Street)", "wheelchair": "yes", "operator": "City of Melbourne" }, "geometry": { "type": "Point", "coordinates": [ 144.98685873937842, -37.810942328096331 ] } },
{ "type": "Feature", "properties": { "name": "Public Toilet - Toilet 182 - Docklands Park South - 25 Harbour Esplanade", "wheelchair": "yes", "operator": "City of Melbourne" }, "geometry": { "type": "Point", "coordinates": [ 144.947383418678072, -37.821758603307991 ] } },
{ "type": "Feature", "properties": { "name": "Public Toilet - Toilet 100 - Royal Park - Native Garden (off Gatehouse Street)", "wheelchair": "yes", "operator": "City of Melbourne" }, "geometry": { "type": "Point", "coordinates": [ 144.956851720841286, -37.792511464486978 ] } }
]
}
